{"html_attributions": [], "results": [{"business_status": "OPERATIONAL", "formatted_address": "1819 El Camino Real, Burlingame, CA 94010, United States", "geometry": {"location": {"lat": 37.5943292, "lng": -122.3846773}, "viewport": {"northeast": {"lat": 37.59567162989273, "lng": -122.3833203201073}, "southwest": {"lat": 37.59297197010729, "lng": -122.3860199798928}}}, "icon": "https://maps.gstatic.com/mapfiles/place_api/icons/v1/png_71/bar-71.png", "icon_background_color": "#FF9E67", "icon_mask_base_uri": "https://maps.gstatic.com/mapfiles/place_api/icons/v2/bar_pinlet", "name": "American Bull Bar & Grill", "opening_hours": {"open_now": true}, "photos": [{"height": 3024, "html_attributions": ["<a href=\"https://maps.google.com/maps/contrib/115515012862672598064\">Flavio Medina</a>"], "photo_reference": "ATJ83zhM329QD_3GSitohMROgkXJlcKneHlU_LxOYI-2sajsOwbZwnnWjTkINhcdVdRMG8qf_7WnFhyHw_3xGfA4RWswkDzIARaRNhDcIiVUtDrGgQkBgqNTdQkQqeJAMaAYjp4yR0GU8inPcQM71ZHBeAkxC1AdbkMYL604dqJY2WCUFCdo", "width": 4032}], "place_id": "ChIJCZRsgLN3j4ARbGSv7IQs284", "plus_code": {"compound_code": "HJV8+M4 Burlingame, California, USA", "global_code": "849VHJV8+M4"}, "price_level": 2, "rating": 4.4, "reference": "ChIJCZRsgLN3j4ARbGSv7IQs284", "types": ["bar", "restaurant", "point_of_interest", "food", "establishment"], "user_ratings_total": 382}, {"business_status": "OPERATIONAL", "formatted_address": "1100 Burlingame Ave, Burlingame, CA 94010, United States", "geometry": {"location": {"lat": 37.5797044, "lng": -122.3456551}, "viewport": {"northeast": {"lat": 37.58101002989272, "lng": -122.3442656201072}, "southwest": {"lat": 37.57831037010727, "lng": -122.3469652798927}}}, "icon": "https://maps.gstatic.com/mapfiles/place_api/icons/v1/png_71/restaurant-71.png", "icon_background_color": "#FF9E67", "icon_mask_base_uri": "https://maps.gstatic.com/mapfiles/place_api/icons/v2/restaurant_pinlet", "name": "Flights Restaurant By Alex Hult - Burlingame", "opening_hours": {"open_now": true}, "photos": [{"height": 3024, "html_attributions": ["<a href=\"https://maps.google.com/maps/contrib/105536843127229431886\">Brendan Larson</a>"], "photo_reference": "ATJ83zgsQDvbZXIKiyf8SCxAESKVuwX3YK4K5qhIR_yb-v9zQ5DXHEbf1jyQ9B3yMils3Pb6mDp0-MsYpe7oi6o5EGv7SXWIXLfySz2NKFLTX4paxm46d_3Tq8Jc3CAw3Yho0-jLXD3wae-WHvR2LtdeqPbL0WendM1vcREo4H8zlIE0Wlrx", "width": 4032}], "place_id": "ChIJz_ye9vGdj4ARoBGsAmTo-ys", "plus_code": {"compound_code": "HMH3+VP Burlingame, California, USA", "global_code": "849VHMH3+VP"}, "price_level": 3, "rating": 4, "reference": "ChIJz_ye9vGdj4ARoBGsAmTo-ys", "types": ["restaurant", "bar", "point_of_interest", "food", "establishment"], "user_ratings_total": 606}, {"business_status": "OPERATIONAL", "formatted_address": "1408 Burlingame Ave, Burlingame, CA 94010, United States", "geometry": {"location": {"lat": 37.5777109, "lng": -122.3485832}, "viewport": {"northeast": {"lat": 37.57902482989272, "lng": -122.3471525201073}, "southwest": {"lat": 37.57632517010728, "lng": -122.3498521798927}}}, "icon": "https://maps.gstatic.com/mapfiles/place_api/icons/v1/png_71/cafe-71.png", "icon_background_color": "#FF9E67", "icon_mask_base_uri": "https://maps.gstatic.com/mapfiles/place_api/icons/v2/cafe_pinlet", "name": "Alana's Cafe", "opening_hours": {"open_now": false}, "photos": [{"height": 4000, "html_attributions": ["<a href=\"https://maps.google.com/maps/contrib/109035164368831800393\">Michelle Lindhartsen</a>"], "photo_reference": "ATJ83zgabeu9aO4k8wx10fTXEfRtQlAjHHzmjHZVVcKUW7V0dQD-CDiulSOZElV1VWbn5yIJVG3GZ7WRJaZSAiKhoNeNKsnVJrBVeKaYfkLoO3bFq-KTi4oXtMSmPMFS-UHfnHZn9pK5kdRFncUeRr2zrjQlxWFNDG_rhqGC75nhY-k5XHYv", "width": 3000}], "place_id": "ChIJj2yyE_Gdj4ARW78PDfzi8-4", "plus_code": {"compound_code": "HMH2+3H Burlingame, California, USA", "global_code": "849VHMH2+3H"}, "price_level": 2, "rating": 4.5, "reference": "ChIJj2yyE_Gdj4ARW78PDfzi8-4", "types": ["cafe", "restaurant", "point_of_interest", "food", "establishment"], "user_ratings_total": 489}, {"business_status": "OPERATIONAL", "formatted_address": "1800 Old Bayshore Hwy, Burlingame, CA 94010, United States", "geometry": {"location": {"lat": 37.6020899, "lng": -122.3704731}, "viewport": {"northeast": {"lat": 37.60366127989273, "lng": -122.3693976201073}, "southwest": {"lat": 37.60096162010728, "lng": -122.3720972798927}}}, "icon": "https://maps.gstatic.com/mapfiles/place_api/icons/v1/png_71/bar-71.png", "icon_background_color": "#FF9E67", "icon_mask_base_uri": "https://maps.gstatic.com/mapfiles/place_api/icons/v2/bar_pinlet", "name": "Flights 101 Club Lounge", "opening_hours": {"open_now": true}, "photos": [{"height": 674, "html_attributions": ["<a href=\"https://maps.google.com/maps/contrib/105445673609987427951\">Hunter Little</a>"], "photo_reference": "ATJ83zhhXuRsQcBu1mXn5c7yyGMmDUXp_s-anm_Y2BTmJN1Jwz4CbrGxJbva4y8QdxoEY1PmlD-jYHf2Lq3ySeSRAj3RFzAdmbFp1jTpcD4oHkwlBxM6MEDIoQ5GKGb65RDLIKMgbmnkHiwpgQrtY98moBhDT6K943o8T7gohTSz4fR8WSVy", "width": 1000}], "place_id": "ChIJj2Ur5853j4ARmuaRyPUZd_Y", "plus_code": {"compound_code": "JJ2H+RR Burlingame, California, USA", "global_code": "849VJJ2H+RR"}, "rating": 4.2, "reference": "ChIJj2Ur5853j4ARmuaRyPUZd_Y", "types": ["night_club", "bar", "point_of_interest", "establishment"], "user_ratings_total": 76}, {"business_status": "OPERATIONAL", "formatted_address": "248 Lorton Ave, Burlingame, CA 94010, United States", "geometry": {"location": {"lat": 37.5787385, "lng": -122.3454974}, "viewport": {"northeast": {"lat": 37.58006817989272, "lng": -122.3441876701073}, "southwest": {"lat": 37.57736852010728, "lng": -122.3468873298928}}}, "icon": "https://maps.gstatic.com/mapfiles/place_api/icons/v1/png_71/restaurant-71.png", "icon_background_color": "#FF9E67", "icon_mask_base_uri": "https://maps.gstatic.com/mapfiles/place_api/icons/v2/restaurant_pinlet", "name": "Farm & Vine American Bistro", "opening_hours": {"open_now": true}, "photos": [{"height": 3024, "html_attributions": ["<a href=\"https://maps.google.com/maps/contrib/112252820441453012556\">Juan Wee</a>"], "photo_reference": "ATJ83ziu1nG-q9Wn8wJhVw9dnFF1arVLZ0iS9Hv5m89l4-B_CeK4MTggsUt-VdOkdiobtHUXJlESvpkzQKVQ-rDwgrtuUKAQwQ7xiR6I7YhYZLRJaD7CG963EKcbqaIJRPKb-0bucbFkzog-qfXzDZs4JX3ekyfyX-615rz77vaG6NPoV6Te", "width": 4032}], "place_id": "ChIJS5o03fGdj4ARhG9sFLcI5-g", "plus_code": {"compound_code": "HMH3+FR Burlingame, California, USA", "global_code": "849VHMH3+FR"}, "price_level": 2, "rating": 4.4, "reference": "ChIJS5o03fGdj4ARhG9sFLcI5-g", "types": ["restaurant", "point_of_interest", "food", "establishment"], "user_ratings_total": 271}, {"business_status": "OPERATIONAL", "formatted_address": "1108 Burlingame Ave, Burlingame, CA 94010, United States", "geometry": {"location": {"lat": 37.5796233, "lng": -122.3457987}, "viewport": {"northeast": {"lat": 37.58092787989271, "lng": -122.3444003701073}, "southwest": {"lat": 37.57822822010727, "lng": -122.3471000298927}}}, "icon": "https://maps.gstatic.com/mapfiles/place_api/icons/v1/png_71/restaurant-71.png", "icon_background_color": "#FF9E67", "icon_mask_base_uri": "https://maps.gstatic.com/mapfiles/place_api/icons/v2/restaurant_pinlet", "name": "Blue Line Pizza", "opening_hours": {"open_now": true}, "photos": [{"height": 2988, "html_attributions": ["<a href=\"https://maps.google.com/maps/contrib/118406179377699767767\">Christopher Henson</a>"], "photo_reference": "ATJ83zj7KSWVrLOY_NFdAkhP90QYxZW2LF5XRtRqtoRHnrTnksPg31Au-n0AqBuBI6eZuzPC0BUf5Uk_d6iGQ-JRac5aM1vZme-OY3y9-nZO1sv21vCnqIVLR25a70mGDi7-Stxz_GP_IHrP7R0IqwS6TRQ2d9e0j7xdgiPgr1-vJJS08v0H", "width": 5312}], "place_id": "ChIJKUxY8fGdj4ARzMgsgdkCFlk", "plus_code": {"compound_code": "HMH3+RM Burlingame, California, USA", "global_code": "849VHMH3+RM"}, "price_level": 2, "rating": 4.4, "reference": "ChIJKUxY8fGdj4ARzMgsgdkCFlk", "types": ["bar", "restaurant", "point_of_interest", "food", "establishment"], "user_ratings_total": 674}, {"business_status": "OPERATIONAL", "formatted_address": "1800 Old Bayshore Hwy, Burlingame, CA 94010, United States", "geometry": {"location": {"lat": 37.602243, "lng": -122.370435}, "viewport": {"northeast": {"lat": 37.60375192989272, "lng": -122.3693594201073}, "southwest": {"lat": 37.60105227010728, "lng": -122.3720590798928}}}, "icon": "https://maps.gstatic.com/mapfiles/place_api/icons/v1/png_71/lodging-71.png", "icon_background_color": "#909CE1", "icon_mask_base_uri": "https://maps.gstatic.com/mapfiles/place_api/icons/v2/hotel_pinlet", "name": "San Francisco Airport Marriott Waterfront", "photos": [{"height": 320, "html_attributions": ["<a href=\"https://maps.google.com/maps/contrib/100083013967644644857\">San Francisco Airport Marriott Waterfront</a>"], "photo_reference": "ATJ83zhWRhRS1ZtMQ54kCeZhXCntZTP3omWkEzkLoC9nbQQmNHOMbPmjiX4-uIx96qkcVI0bgDr_S0SvmGt2gUzreBF-MsPN2Nf-I8o6TIQG3DFknWBiYRX9cr4uJRsGLJEHxxMhynwT-GI-0zdcklJWePChE6sq2li4O361VgsyVPwod_OC", "width": 480}], "place_id": "ChIJhznIwSh2j4ARiDadKzOxjuA", "plus_code": {"compound_code": "JJ2H+VR Burlingame, California, USA", "global_code": "849VJJ2H+VR"}, "rating": 4.3, "reference": "ChIJhznIwSh2j4ARiDadKzOxjuA", "types": ["lodging", "point_of_interest", "establishment"], "user_ratings_total": 3435}], "status": "OK"}